[
  {
    "name": "Schleswig-Holstein",
    "lat": 54.188,
    "long": 9.8061
  },
  {
    "name": "Hamburg",
    "lat": 53.554,
    "long": 10.026
  },
  {
    "name": "Niedersachsen",
    "lat": 52.57,
    "long": 9.17
  },
  {
    "name": "Bremen",
    "lat": 53.111,
    "long": 8.7868
  },
  {
    "name": "Nordrhein-Westfalen",
    "lat": 51.476,
    "long": 7.5664
  },
  {
    "name": "Hessen",
    "lat": 50.602,
    "long": 9.0394
  },
  {
    "name": "Rheinland-Pfalz",
    "lat": 49.914,
    "long": 7.4542
  },
  {
    "name": "Baden-Württemberg",
    "lat": 48.548,
    "long": 9.0491
  },
  {
    "name": "Bayern",
    "lat": 48.946,
    "long": 11.422
  },
  {
    "name": "Saarland",
    "lat": 49.386,
    "long": 6.9575
  },
  {
    "name": "Berlin",
    "lat": 52.498,
    "long": 13.409
  },
  {
    "name": "Brandenburg",
    "lat": 53.008,
    "long": 12.676
  },
  {
    "name": "Mecklenburg-Vorpommern",
    "lat": 53.853,
    "long": 12.536
  },
  {
    "name": "Sachsen",
    "lat": 51.051,
    "long": 13.353
  },
  {
    "name": "Sachsen-Anhalt",
    "lat": 52.012,
    "long": 11.705
  },
  {
    "name": "Thüringen",
    "lat": 50.903,
    "long": 11.03
  }
]
